[
	{
	    "code": "ATL",
	    "lat": 33.6558,
	    "lon": -84.4333,
	    "name": "Hartsfield-Jackson Atlanta International Airport",
	    "city": "Atlanta",
	    "state": "Georgia",
	    "country": "United States",
	    "passengers": 110531300
	},
	{
	    "code": "PEK",
	    "lat": 40.0724,
	    "lon": 116.583,
	    "name": "Beijing Capital Airport",
	    "city": "Shunyi",
	    "state": "Beijing",
	    "country": "China",
	    "passengers": 100011000
	},
	{
	    "code": "LAX",
	    "lat": 33.9456,
	    "lon": -118.391,
	    "name": "Los Angeles International Airport",
	    "city": "Los Angeles",
	    "state": "California",
	    "country": "United States",
	    "passengers": 88068013
	},
	{
	    "code": "DXB",
	    "lat": 25.2509,
	    "lon": 55.3629,
	    "name": "Dubai International Airport",
	    "city": "Dubai",
	    "state": "Dubai",
	    "country": "United Arab Emirates",
	    "passengers": 86396757
	},
	{
	    "code": "HND",
	    "lat": 35.5533,
	    "lon": 139.771,
	    "name": "Tokyo International Airport",
	    "city": "Tokyo",
	    "state": "Tokyo Prefecture",
	    "country": "Japan",
	    "passengers": 85505054
	},
	{
	    "code": "ORD",
	    "lat": 41.9796,
	    "lon": -87.8825,
	    "name": "Chicago O'Hare International Airport",
	    "city": "Chicago",
	    "state": "Illinois",
	    "country": "United States",
	    "passengers": 	84397776
	},
	{
	    "code": "LHR",
	    "lat": 51.4703,
	    "lon": -0.45342,
	    "name": "London Heathrow Airport",
	    "city": "Hounslow",
	    "state": "England",
	    "country": "United Kingdom",
	    "passengers": 80844310
	},
	{
	    "code": "PVG",
	    "lat": 31.1156,
	    "lon": 121.803,
	    "name": "Pudong International Airport",
	    "city": "Huinan",
	    "state": "Shanghai",
	    "country": "China",
	    "passengers": 76153500
	},
	{
	    "code": "CDG",
	    "lat": 49.0175,
	    "lon": 2.5564,
	    "name": "Charles de Gaulle International Airport",
	    "city": "Le Mesnil-Amelot",
	    "state": "Ile-de-France",
	    "country": "France",
	    "passengers": 76150007
	},
	{
	    "code": "DFW",
	    "lat": 32.9222,
	    "lon": -97.0409,
	    "name": "Fort Worth International Airport",
	    "city": "Dallas",
	    "state": "Texas",
	    "country": "United States",
	    "passengers": 75066956
	},
	{
	    "code": "CAN",
	    "lat": 23.3925,
	    "lon": 113.299,
	    "name": "Baiyun Airport",
	    "city": "Guangzhou",
	    "state": "Guangdong",
	    "country": "China",
	    "passengers": 73378475
	},
	{
	    "code": "AMS",
	    "lat": 52.3122,
	    "lon": 4.77511,
	    "name": "Schiphol Airport",
	    "city": "Schiphol Zuid",
	    "state": "North Holland",
	    "country": "Netherlands",
	    "passengers": 71706999
	},
	{
	    "code": "HKG",
	    "lat": 22.3124,
	    "lon": 113.929,
	    "name": "Hong Kong International Airport",
	    "city": "Hong Kong",
	    "state": "Hong Kong Island",
	    "country": "Hong Kong",
	    "passengers": 71541000
	},
	{
	    "code": "ICN",
	    "lat": 37.4534,
	    "lon": 126.657,
	    "name": "New Incheon International Airport",
	    "city": "Incheon",
	    "state": "Incheon",
	    "country": "South Korea",
	    "passengers": 71169516
	},
	{
	    "code": "FRA",
	    "lat": 50.0483,
	    "lon": 8.57041,
	    "name": "Frankfurt International Airport",
	    "city": "Frankfurt",
	    "state": "Hesse",
	    "country": "Germany",
	    "passengers": 70560987
	}
]